[
    {
        "name": "Queen of Hearts",
        "category": "wicked",
        "city": "wut",
        "state": "Disney",
        "id": 1001,
        "isFeatured": true,
        "isFavorite": true,
        "park": "Alice in Wonderland",
        "coordinates": {
            "longitude": -116.166868,
            "latitude": 34.011286
        },
        "description": "Girl get big and smal",
        "imageName": "qoh"
    },
    {
        "name": "Jafar",
        "category": "wicked",
        "city": "Port Alsworth",
        "state": "Alaska",
        "id": 1002,
        "isFeatured": false,
        "isFavorite": false,
        "park": "Aladdin",
        "coordinates": {
            "longitude": -152.665167,
            "latitude": 59.980167
        },
        "description": "Monke eat bread, find ghost in lamp",
        "imageName": "jafar"
    },
    {
        "name": "Maleficent",
        "category": "wicked",
        "city": "Skagway",
        "state": "Alaska",
        "id": 1003,
        "isFeatured": false,
        "isFavorite": true,
        "park": "Sleeping Beauty",
        "coordinates": {
            "longitude": -135.334571,
            "latitude": 59.560551
        },
        "description": "Tired girl",
        "imageName": "maleficent"
    },
    {
        "name": "Prince John",
        "category": "wicked",
        "city": "Browning",
        "state": "Montana",
        "id": 1004,
        "isFeatured": true,
        "isFavorite": true,
        "park": "Robin Hood",
        "coordinates": {
            "longitude": -113.536248,
            "latitude": 48.69423
        },
        "description": "steal moneys for u",
        "imageName": "pj"
    },
    {
        "name": "Captain Hook",
        "category": "wicked",
        "city": "Twin Lakes",
        "state": "Alaska",
        "id": 1005,
        "isFeatured": false,
        "isFavorite": false,
        "park": "Peter Pan",
        "coordinates": {
            "longitude": -153.849883,
            "latitude": 60.641684
        },
        "description": "Tinkerbell",
        "imageName": "ch"
    },
    {
        "name": "Ursula",
        "category": "wicked",
        "city": "West Glacier",
        "state": "Montana",
        "id": 1006,
        "isFeatured": false,
        "isFavorite": false,
        "park": "The Little Mermaid",
        "coordinates": {
            "longitude": -113.934831,
            "latitude": 48.56002
        },
        "description": "Red head swims around, then looses voice.",
        "imageName": "ursula"
    },
    {
        "name": "Ratigan",
        "category": "prepared",
        "city": "Twin Lakes",
        "state": "Alaska",
        "id": 1005,
        "isFeatured": false,
        "isFavorite": false,
        "park": "Peter Pan",
        "coordinates": {
            "longitude": -153.849883,
            "latitude": 60.641684
        },
        "description": "Tinkerbell",
        "imageName": "ch"
    },
    {
        "name": "Scar",
        "category": "prepared",
        "city": "Twin Lakes",
        "state": "Alaska",
        "id": 1005,
        "isFeatured": false,
        "isFavorite": false,
        "park": "Peter Pan",
        "coordinates": {
            "longitude": -153.849883,
            "latitude": 60.641684
        },
        "description": "Tinkerbell",
        "imageName": "ch"
    },
    {
        "name": "Yzma",
        "category": "prepared",
        "city": "Twin Lakes",
        "state": "Alaska",
        "id": 1005,
        "isFeatured": false,
        "isFavorite": false,
        "park": "Peter Pan",
        "coordinates": {
            "longitude": -153.849883,
            "latitude": 60.641684
        },
        "description": "Tinkerbell",
        "imageName": "ch"
    },
    {
        "name": "Mother Gothel",
        "category": "wretched",
        "city": "Twin Lakes",
        "state": "Alaska",
        "id": 1005,
        "isFeatured": false,
        "isFavorite": false,
        "park": "Peter Pan",
        "coordinates": {
            "longitude": -153.849883,
            "latitude": 60.641684
        },
        "description": "Tinkerbell",
        "imageName": "ch"
    },
    {
        "name": "Cruella de Vil",
        "category": "wretched",
        "city": "Twin Lakes",
        "state": "Alaska",
        "id": 1005,
        "isFeatured": false,
        "isFavorite": false,
        "park": "Peter Pan",
        "coordinates": {
            "longitude": -153.849883,
            "latitude": 60.641684
        },
        "description": "Tinkerbell",
        "imageName": "ch"
    },
    {
        "name": "Pete",
        "category": "wretched",
        "city": "Twin Lakes",
        "state": "Alaska",
        "id": 1005,
        "isFeatured": false,
        "isFavorite": false,
        "park": "Peter Pan",
        "coordinates": {
            "longitude": -153.849883,
            "latitude": 60.641684
        },
        "description": "Tinkerbell",
        "imageName": "ch"
    },
    {
        "name": "Syndrome",
        "category": "bigger",
        "city": "Twin Lakes",
        "state": "Alaska",
        "id": 1005,
        "isFeatured": false,
        "isFavorite": false,
        "park": "Peter Pan",
        "coordinates": {
            "longitude": -153.849883,
            "latitude": 60.641684
        },
        "description": "Tinkerbell",
        "imageName": "ch"
    },
    {
        "name": "Lotso",
        "category": "bigger",
        "city": "Twin Lakes",
        "state": "Alaska",
        "id": 1005,
        "isFeatured": false,
        "isFavorite": false,
        "park": "Peter Pan",
        "coordinates": {
            "longitude": -153.849883,
            "latitude": 60.641684
        },
        "description": "Tinkerbell",
        "imageName": "ch"
    },
    {
        "name": "Madam Mim",
        "category": "bigger",
        "city": "Twin Lakes",
        "state": "Alaska",
        "id": 1005,
        "isFeatured": false,
        "isFavorite": false,
        "park": "Peter Pan",
        "coordinates": {
            "longitude": -153.849883,
            "latitude": 60.641684
        },
        "description": "Tinkerbell",
        "imageName": "ch"
    },
]
